[{"name":"E.ON Drive DE EDR","address":"Teststraße 999, 012345 Musterstadt"},
{"name":"RWE Effizienz GmbH","address":"Hansastr. 74, 44137 Dortmund"},
{"name":"RWE Effizienz GmbH","address":"Kuhstraße, 44137 Dortmund"},
{"name":"RWE Effizienz GmbH","address":"Olpe 1, 44135 Dortmund"},
{"name":"RWE Effizienz GmbH","address":"Kleppingstr. 33, 44135 Dortmund"},
{"name":"RWE Effizienz GmbH","address":"Kuhstr. 12, 44137 Dortmund"},
{"name":"RWE Effizienz GmbH","address":"Freistuhl 7, 44137 Dortmund"},
{"name":"RWE Effizienz GmbH","address":"Burgwall 8, 44135 Dortmund"},
{"name":"RWE Effizienz GmbH","address":"Schwanenwall 46, 44135 Dortmund"},
{"name":"RWE Effizienz GmbH","address":"Burgwall 3, 44135 Dortmund"},
{"name":"RWE Effizienz GmbH","address":"Ostwall 51, 44149 Dortmund"},
{"name":"RWE Effizienz GmbH","address":"Ostwall 7, 44135 Dortmund"},
{"name":"RWE Effizienz GmbH","address":"Schwanenwall 12, 44135 Dortmund"},
{"name":"RWE Effizienz GmbH","address":"Hoher Wall 2A, 44137 Dortmund"},
{"name":"RWE Effizienz GmbH","address":"Hoher Wall 15, 44137 Dortmund"},
{"id": 50366,"lat": 51.512909,"lng": 7.423314,"bike": false,"address": "Wittener Str. / Wilhelmplatz"},
{"id": 50367,"lat": 51.518965,"lng": 7.459105,"bike": false,"address": "Hauptbahnhof Nordausgang"},
{"id": 50368,"lat": 51.519332,"lng": 7.460124,"bike": false,"address": "Cinestar"},
{"id": 50370,"lat": 51.517155,"lng": 7.459931,"bike": false,"address": "Hauptbahnhof/Bahnhofsvorplatz"},
{"id": 50371,"lat": 51.516726,"lng": 7.461765,"bike": false,"address": "RWE Tower"},
{"id": 50372,"lat": 51.516831,"lng": 7.469189,"bike": false,"address": "Kuckelke"},
{"id": 50373,"lat": 51.515364,"lng": 7.462082,"bike": false,"address": "Kampstr. / Freistuhl"},
{"id": 50375,"lat": 51.513917,"lng": 7.472624,"bike": false,"address": "Schwanenwall"},
{"id": 50376,"lat": 51.512609,"lng": 7.463483,"bike": false,"address": "Hansastr."}]
